[{"@type":"Restaurant","id":"1","name":"Restoran Vegehop","address":{"@type":"PostalAddress","streetAddress":"Vlaška ulica 79","addressLocality":"Zagreb, Croatia","postalCode":"10000"},"latitude":45.81462343,"longitude":15.98823879,"telephone":"014649400","openingHours":"Mon-Sat 12:00-20:00","delivery":true,"websiteLinks":[{"type":"website","link":"vegehop.hr"},{"type":"facebook","link":"facebook.com/vegehop"},{"type":"instagram","link":"instagram.com/vegehop_restaurant"},{"type":"youtube","link":"youtube.com/user/Vegehop"}]},{"@type":"Restaurant","id":"2","name":"Gajbica","address":{"@type":"PostalAddress","streetAddress":"Vlaška ulica 7","addressLocality":"Zagreb, Croatia","postalCode":"10000"},"latitude":45.81391498,"longitude":15.97946271,"telephone":"0915141274","openingHours":"Mon-Sat 11:00-18:00","delivery":true,"websiteLinks":[{"type":"website","link":"gajbica.eatbu.com"},{"type":"facebook","link":"facebook.com/gajbicahr"},{"type":"instagram","link":"instagram.com/gajbica_zg"}]},{"@type":"Restaurant","id":"3","name":"OAZA Joyful Kitchen","address":{"@type":"PostalAddress","streetAddress":"Ulica Pavla Radića 9","addressLocality":"Zagreb, Croatia","postalCode":"10000"},"latitude":45.8143454,"longitude":15.97565004,"telephone":"0976602744","openingHours":"Mon-Fri 10:00-21:00,Sat 12:00-21:00","delivery":true,"websiteLinks":[{"type":"website","link":"joyful-kitchen.com"},{"type":"facebook","link":"facebook.com/oaza.joyful.kitchen"},{"type":"instagram","link":"instagram.com/oaza.joyful.kitchen"},{"type":"tiktok","link":"tiktok.com/@oaza.joyful.kitchen"},{"type":"linkedin","link":"linkedin.com/company/oaza-joyful-kitchen"}]},{"@type":"Restaurant","id":"4","name":"BEKIND","address":{"@type":"PostalAddress","streetAddress":"Ilica 75","addressLocality":"Zagreb, Croatia","postalCode":"10000"},"latitude":45.81245345,"longitude":15.96450714,"telephone":"015534763","openingHours":"Tue-Sat 09:00-22:00,Sun 09:00-16:00","delivery":false,"websiteLinks":[{"type":"website","link":"bekind.hr"},{"type":"facebook","link":"facebook.com/bekind.zagreb"},{"type":"instagram","link":"instagram.com/bekind.zagreb"}]},{"@type":"Restaurant","id":"5","name":"Zrno bio bistro","address":{"@type":"PostalAddress","streetAddress":"Medulićeva ulica 20","addressLocality":"Zagreb, Croatia","postalCode":"10000"},"latitude":45.81122113,"longitude":15.96667598,"telephone":"014847540","openingHours":"Mon-Sat 12:00-21:30","delivery":true,"websiteLinks":[{"type":"website","link":"zrnobiobistro.hr"},{"type":"facebook","link":"facebook.com/zrnobiobistro"},{"type":"instagram","link":"instagram.com/zrnobiobistro"}]},{"@type":"Restaurant","id":"6","name":"Falafel, etc.","address":{"@type":"PostalAddress","streetAddress":"Ulica Andrije Žaje 60","addressLocality":"Zagreb, Croatia","postalCode":"10000"},"latitude":45.8069589,"longitude":15.95334024,"telephone":"012343945","openingHours":"Mon-Sun 11:00-21:30","delivery":true,"websiteLinks":[{"type":"website","link":"falafeletc.com.hr"},{"type":"facebook","link":"facebook.com/falafeletczg"}]},{"@type":"Restaurant","id":"7","name":"Shambala","address":{"@type":"PostalAddress","streetAddress":"Iločka ulica 34","addressLocality":"Zagreb, Croatia","postalCode":"10000"},"latitude":45.79956603,"longitude":15.95967074,"telephone":"0957618710","openingHours":"Mon-Fri 11:00-18:00,Sat-Sun 11:00:16:00","delivery":true,"websiteLinks":[{"type":"facebook","link":"facebook.com/people/Shambala-Vegan-food-sweets-more/100083364727743"}]},{"@type":"Restaurant","id":"8","name":"Simple Green by Jelena","address":{"@type":"PostalAddress","streetAddress":"Zelinska Ulica 7","addressLocality":"Zagreb, Croatia","postalCode":"10000"},"latitude":45.80106354,"longitude":15.97246634,"telephone":"015561679","openingHours":"Mon-Sat 08:00-16:00","delivery":true,"websiteLinks":[{"type":"website","link":"simplegreenbyjelena.com"},{"type":"facebook","link":"facebook.com/profile.php?id=100057104513129"},{"type":"instagram","link":"instagram.com/simplegreen_by_jelena"},{"type":"tripadvisor","link":"tripadvisor.com/Restaurant_Review-g294454-d11844934-Reviews-Simple_Green_Bake_by_Jelena-Zagreb_Central_Croatia.html"}]},{"@type":"Restaurant","id":"9","name":"Vege Fino za sve","address":{"@type":"PostalAddress","streetAddress":"Ulica Lavoslava Ružičke 48","addressLocality":"Zagreb, Croatia","postalCode":"10000"},"latitude":45.79626824,"longitude":15.96986333,"telephone":"098777577","openingHours":"Mon-Fri 10:00-18:00,Sun 12:00-18:00","delivery":true,"websiteLinks":[{"type":"website","link":"vegefinozasve.com"},{"type":"facebook","link":"facebook.com/VegeFinoZaSve"}]},{"@type":"Restaurant","id":"10","name":"Barcode Mitra","address":{"@type":"PostalAddress","streetAddress":"Zagrebačka cesta 113","addressLocality":"Zagreb, Croatia","postalCode":"10000"},"latitude":45.80673849,"longitude":15.92470464,"telephone":"013770428","openingHours":"Mon-Sat 14:00-22:00","delivery":true,"websiteLinks":[{"type":"website","link":"barcodemitra.hr"},{"type":"facebook","link":"facebook.com/BarcodeMitra"},{"type":"instagram","link":"instagram.com/barcode_mitra"}]},{"@type":"Restaurant","id":"11","name":"Pandora Greenbox","address":{"@type":"PostalAddress","streetAddress":"Obrov ulica 4","addressLocality":"Split, Croatia","postalCode":"21000"},"latitude":43.50930416,"longitude":16.4376495,"telephone":"021236120","openingHours":"Mon-Sun 08:30-12:00","delivery":false,"websiteLinks":[{"type":"website","link":"pandoragreenbox.com"},{"type":"facebook","link":"facebook.com/PandoraGreenbox"},{"type":"instagram","link":"instagram.com/pandora_greenbox"}]},{"@type":"Restaurant","id":"12","name":"Upcafe","address":{"@type":"PostalAddress","streetAddress":"Ulica Domovinskog rata 29a","addressLocality":"Split, Croatia","postalCode":"21000"},"latitude":43.51692872,"longitude":16.44540914,"telephone":"0916210500","openingHours":"Mon-Sat 07:00-20:00,Sun 08:00-20:00","delivery":true,"websiteLinks":[{"type":"website","link":"upcafe.hr"},{"type":"facebook","link":"facebook.com/upcafe12"},{"type":"instagram","link":"instagram.com/upcafe.split"},{"type":"tripadvisor","link":"tripadvisor.com/Restaurant_Review-g295370-d5773474-Reviews-UPcafe-Split_Split_Dalmatia_County_Dalmatia.html"}]},{"@type":"Restaurant","id":"13","name":"The Botanist","address":{"@type":"PostalAddress","streetAddress":"Ulica Mihovila Pavlinovića 4","addressLocality":"Zadar, Croatia","postalCode":"23000"},"latitude":44.1164374,"longitude":15.22593932,"telephone":"0924232296","openingHours":"Mon-Sun 12:00-23:00","delivery":false,"websiteLinks":[{"type":"instagram","link":"instagram.com/botanist_zadar"}]},{"@type":"Restaurant","id":"14","name":"Nishta","address":{"@type":"PostalAddress","streetAddress":"Prijeko ulica bb","addressLocality":"Dubrovnik, Croatia","postalCode":"20000"},"latitude":42.67534972,"longitude":18.10592518,"telephone":"020322088","openingHours":"Mon-Sat 11:30-22:00","delivery":false,"websiteLinks":[{"type":"website","link":"nishtarestaurant.com"},{"type":"facebook","link":"facebook.com/nishtarestaurant"},{"type":"instagram","link":"instagram.com/explore/locations/798999121"},{"type":"x","link":"twitter.com/hashtag/nishta"}]},{"@type":"Restaurant","id":"15","name":"BioMania Bistro Bol","address":{"@type":"PostalAddress","streetAddress":"Rudina 10","addressLocality":"Bol, Croatia","postalCode":"21420"},"latitude":43.26175996,"longitude":16.65493408,"telephone":"0919362276","openingHours":"Mon-Thu 13:00-21:00,Sat 13:00-21:00,Sun 10:00-22:00","delivery":false,"websiteLinks":[{"type":"website","link":"biomania.hr"},{"type":"facebook","link":"facebook.com/biomaniahr"},{"type":"instagram","link":"instagram.com/biomaniahr"},{"type":"tripadvisor","link":"tripadvisor.com/Restaurant_Review-g303802-d14997286-Reviews-BioMania_Street_Food-Bol_Brac_Island_Split_Dalmatia_County_Dalmatia.html"}]}]